[{"id":11,"name":"Akumal","address":"Avenida principal, Av. Gonzalo Guerrero, 77736 Q.R.","slug":"akumal","zone":{"id":9,"name":"Akumal","distance":"100 KM","time":"1 H 30 Min"},"geo":{"zone":9,"lat":"20.4027428","lng":"-87.3193673"}},{"id":1084,"name":"Akumal Breakers","address":"Lote 45, Playa Akumal Akumal Sur, 77780 Akumal, Q.R.","slug":"akumal-breakers","zone":{"id":9,"name":"Akumal","distance":"100 KM","time":"1 H 30 Min"},"geo":{"zone":9,"lat":"20.3808223","lng":"-87.3267358"}},{"id":1143,"name":"Akumal Natura Glamping","address":"Camino de Acceso Uxuxubi con Torres Alta Tensi\u00f3n S\/N, 77760 Akumal, Q.R.","slug":"akumal-natura-glamping","zone":{"id":9,"name":"Akumal","distance":"100 KM","time":"1 H 30 Min"},"geo":{"zone":9,"lat":"20.4025286","lng":"-87.3321468"}},{"id":1089,"name":"Akumal Tan-Ik","address":"Calle Yal Ku Mnz 7 Etapa G Lt 53, 77776 Akumal, Q.R.","slug":"akumal-tan-ik","zone":{"id":9,"name":"Akumal","distance":"100 KM","time":"1 H 30 Min"},"geo":{"zone":9,"lat":"20.3954453","lng":"-87.3319505"}},{"id":1086,"name":"Amanecer Akumal","address":"77776 Akumal, Q.R.","slug":"amanecer-akumal","zone":{"id":9,"name":"Akumal","distance":"100 KM","time":"1 H 30 Min"},"geo":{"zone":9,"lat":"20.4083549","lng":"-87.3081682"}},{"id":1087,"name":"Aquatech Villas DeRosa Resort","address":"Riviera Mya, Lot 37, Aventuras Akumal, 77776 Akumal, Q.R.","slug":"aquatech-villas-derosa-resort","zone":{"id":9,"name":"Akumal","distance":"100 KM","time":"1 H 30 Min"},"geo":{"zone":9,"lat":"20.3731242","lng":"-87.330727"}},{"id":1088,"name":"Aventuras Akumal","address":"77775 Q.R.","slug":"aventuras-akumal","zone":{"id":9,"name":"Akumal","distance":"100 KM","time":"1 H 30 Min"},"geo":{"zone":9,"lat":"20.3743046","lng":"-87.330577"}},{"id":1090,"name":"Casa Aurora","address":"Unnamed Road, 77760 Akumal, Q.R.","slug":"casa-aurora","zone":{"id":9,"name":"Akumal","distance":"100 KM","time":"1 H 30 Min"},"geo":{"zone":9,"lat":"20.4098327","lng":"-87.3069914"}},{"id":1091,"name":"Casa Azul Riviera","address":"LOTE 7 ETAPA H FRACC AKUMAL Akumal Playa, 77776 Q.R.","slug":"casa-azul-riviera","zone":{"id":9,"name":"Akumal","distance":"100 KM","time":"1 H 30 Min"},"geo":{"zone":9,"lat":"20.4098474","lng":"-87.3077539"}},{"id":1163,"name":"Casa Bella","address":"Lote 14 SECC H H Akumal Camino a la laguna, 77776 Akumal, Q.R.","slug":"casa-bella","zone":{"id":9,"name":"Akumal","distance":"100 KM","time":"1 H 30 Min"},"geo":{"zone":9,"lat":"20.4090346","lng":"-87.3072932"}},{"id":1092,"name":"Casa Caribe","address":"77776 Q.R.","slug":"casa-caribe","zone":{"id":9,"name":"Akumal","distance":"100 KM","time":"1 H 30 Min"},"geo":{"zone":9,"lat":"20.4098914","lng":"-87.3257786"}},{"id":1093,"name":"Casa Cascadas","address":"Unnamed Rd, Mexico, Q.R.","slug":"casa-cascadas","zone":{"id":9,"name":"Akumal","distance":"100 KM","time":"1 H 30 Min"},"geo":{"zone":9,"lat":"20.3975688","lng":"-87.3125436"}},{"id":1094,"name":"Casa Coral Luxury Condos","address":"77776 Akumal, Q.R.","slug":"casa-coral-luxury-condos","zone":{"id":9,"name":"Akumal","distance":"100 KM","time":"1 H 30 Min"},"geo":{"zone":9,"lat":"20.3869811","lng":"-87.3257195"}},{"id":1097,"name":"Casa de las Conchas","address":"Fraction 11, Lote 54, Etapa B, South, 77737 Akumal, Q.R.","slug":"casa-de-las-conchas","zone":{"id":9,"name":"Akumal","distance":"100 KM","time":"1 H 30 Min"},"geo":{"zone":9,"lat":"20.3822099","lng":"-87.3270607"}},{"id":1095,"name":"Casa del Cielo","address":"77775 Tulum, Q.R.","slug":"casa-del-cielo","zone":{"id":9,"name":"Akumal","distance":"100 KM","time":"1 H 30 Min"},"geo":{"zone":9,"lat":"20.3820675","lng":"-87.3271578"}},{"id":1098,"name":"Casa Del Sol","address":"77776 Akumal, Q.R.","slug":"casa-del-sol","zone":{"id":9,"name":"Akumal","distance":"100 KM","time":"1 H 30 Min"},"geo":{"zone":9,"lat":"20.4099449","lng":"-87.308076"}},{"id":1168,"name":"Casa Fortuna Luxury Beachfront Villa Akumal","address":"Caleta Yalku, Secc. G, Lote 51, Norte, 77780 Akumal, Q.R.","slug":"casa-fortuna-luxury-beachfront-villa-akumal","zone":{"id":9,"name":"Akumal","distance":"100 KM","time":"1 H 30 Min"},"geo":{"zone":9,"lat":"20.4064497","lng":"-87.3108996"}},{"id":1099,"name":"Casa Gatos","address":"Lote 100, Caleta Yalku, North Akumal, 77737 Akumal, Q.R.","slug":"casa-gatos","zone":{"id":9,"name":"Akumal","distance":"100 KM","time":"1 H 30 Min"},"geo":{"zone":9,"lat":"20.4090155","lng":"-87.3071986"}},{"id":1101,"name":"Casa Gray","address":"Aventuras Akumal, 77775 Aventuras Akumal, Q.R.","slug":"casa-gray","zone":{"id":9,"name":"Akumal","distance":"100 KM","time":"1 H 30 Min"},"geo":{"zone":9,"lat":"20.3735996","lng":"-87.33016"}},{"id":1102,"name":"Casa Iguana","address":"Lote Calle Caleta 77728,, Yalku, 15, Canc\u00fan, Q.R.","slug":"casa-iguana","zone":{"id":9,"name":"Akumal","distance":"100 KM","time":"1 H 30 Min"},"geo":{"zone":9,"lat":"20.8346578","lng":"-87.7549043"}},{"id":1103,"name":"Casa Konomi","address":"Casa Konomi Lote 75 y Lote 76 Akumal Playa, 77776 Akumal, Q.R.","slug":"casa-konomi","zone":{"id":9,"name":"Akumal","distance":"100 KM","time":"1 H 30 Min"},"geo":{"zone":9,"lat":"20.4085412","lng":"-87.308356"}},{"id":1164,"name":"Casa Konomi","address":"Casa Konomi Lote 75 y Lote 76 Akumal Playa, 77776 Akumal, Q.R.","slug":"casa-konomi","zone":{"id":9,"name":"Akumal","distance":"100 KM","time":"1 H 30 Min"},"geo":{"zone":9,"lat":"20.4085412","lng":"-87.308356"}},{"id":1096,"name":"Casa Ligera","address":"Lote 15, Yalku, Norte, 77728 Akumal, Q.R.","slug":"casa-ligera","zone":{"id":9,"name":"Akumal","distance":"100 KM","time":"1 H 30 Min"},"geo":{"zone":9,"lat":"20.3821115","lng":"-87.3451825"}},{"id":1107,"name":"Casa Luna Akumal","address":"Lote 25 F, 77776 Akumal, Q.R.","slug":"casa-luna-akumal","zone":{"id":9,"name":"Akumal","distance":"100 KM","time":"1 H 30 Min"},"geo":{"zone":9,"lat":"20.4008709","lng":"-87.3111403"}},{"id":1105,"name":"Casa Magica Jade Bay","address":"9MPG+MM, 77776 Akumal, Q.R.","slug":"casa-magica-jade-bay","zone":{"id":9,"name":"Akumal","distance":"100 KM","time":"1 H 30 Min"},"geo":{"zone":9,"lat":"20.3867748","lng":"-87.3257857"}},{"id":1178,"name":"Casa Nicte Ha","address":"Playa, 77776 Akumal, Q.R.","slug":"casa-nicte-ha","zone":{"id":9,"name":"Akumal","distance":"100 KM","time":"1 H 30 Min"},"geo":{"zone":9,"lat":"20.3996934","lng":"-87.3112461"}},{"id":1109,"name":"Casa Playa del Caribe","address":"Fraccionamiento akumal sur lote 46 Akumal Sur, sur, Quintana Roo, 77737 Akumal, Q.R.","slug":"casa-playa-del-caribe","zone":{"id":9,"name":"Akumal","distance":"100 KM","time":"1 H 30 Min"},"geo":{"zone":9,"lat":"20.3813631","lng":"-87.3270149"}},{"id":1128,"name":"Casa Que Onda","address":"Caleta Yalku, 77737 Akumal, Q.R.","slug":"casa-que-onda","zone":{"id":9,"name":"Akumal","distance":"100 KM","time":"1 H 30 Min"},"geo":{"zone":9,"lat":"20.4089732","lng":"-87.3068551"}},{"id":1110,"name":"Casa Rosa Akumal","address":"Caleta Yalku 26, 77776 Akumal, Q.R.","slug":"casa-rosa-akumal","zone":{"id":9,"name":"Akumal","distance":"100 KM","time":"1 H 30 Min"},"geo":{"zone":9,"lat":"20.4010935","lng":"-87.327791"}},{"id":1111,"name":"Casa Salvaje Akumal","address":"Aventuras Akumal, 77775 Aventuras Akumal, Q.R.","slug":"casa-salvaje-akumal","zone":{"id":9,"name":"Akumal","distance":"100 KM","time":"1 H 30 Min"},"geo":{"zone":9,"lat":"20.3740141","lng":"-87.3296713"}},{"id":1181,"name":"Casa San Francisco","address":"77775 Q.R.","slug":"casa-san-francisco","zone":{"id":9,"name":"Akumal","distance":"100 KM","time":"1 H 30 Min"},"geo":{"zone":9,"lat":"20.3830285","lng":"-87.3269792"}},{"id":1116,"name":"Casa Solymar","address":"Beach Road, Lote 14, Norte, 77776 Akumal, Q.R.","slug":"casa-solymar","zone":{"id":9,"name":"Akumal","distance":"100 KM","time":"1 H 30 Min"},"geo":{"zone":9,"lat":"20.4052223","lng":"-87.3115427"}},{"id":1117,"name":"Casa Texana ,Akumal","address":" 77775 Akumal, Q.R.","slug":"casa-texana-akumal","zone":{"id":9,"name":"Akumal","distance":"100 KM","time":"1 H 30 Min"},"geo":{"zone":9,"lat":"20.3811484","lng":"-87.3269311"}},{"id":1189,"name":"Del Sol Beachfront Condos and Hotel","address":"Calle Caleta Yalku Mz.7 Lot.41G, 77731 Akumal, Q.R.","slug":"del-sol-beachfront-condos-and-hotel","zone":{"id":9,"name":"Akumal","distance":"100 KM","time":"1 H 30 Min"},"geo":{"zone":9,"lat":"20.4037217","lng":"-87.3096344"}},{"id":1119,"name":"Del Sol Beachfront Condos and Hotel","address":"Calle Caleta Yalku Mz.7 Lot.41G, 77731 Akumal, Q.R.","slug":"del-sol-beachfront-condos-and-hotel","zone":{"id":9,"name":"Akumal","distance":"100 KM","time":"1 H 30 Min"},"geo":{"zone":9,"lat":"20.4037217","lng":"-87.3122093"}},{"id":1120,"name":"Destino Boutique Hotel","address":"Carretera Cancun Tulum KM. 256 Akumal, 77780 Canc\u00fan, Q.R.","slug":"destino-boutique-hotel","zone":{"id":9,"name":"Akumal","distance":"100 KM","time":"1 H 30 Min"},"geo":{"zone":9,"lat":"20.4253895","lng":"-87.3101463"}},{"id":1146,"name":"EKUMAL your ecological center","address":"Carr. Canc\u00fan - Tulum km 253, Rancho San Mart\u00edn, 77771 Akumal, Q.R.","slug":"ekumal-your-ecological-center","zone":{"id":9,"name":"Akumal","distance":"100 KM","time":"1 H 30 Min"},"geo":{"zone":9,"lat":"20.433157","lng":"-87.3188844"}},{"id":1035,"name":"El Dorado Seaside Suites","address":"Carr. Canc\u00fan - Tulum Km. 95, 77733 Puerto Aventuras, Q.R.","slug":"el-dorado-seaside-suites","zone":{"id":9,"name":"Akumal","distance":"100 KM","time":"1 H 30 Min"},"geo":{"zone":9,"lat":"20.4546391","lng":"-87.2743578"}},{"id":1145,"name":"Grand Oasis Tulum Riviera","address":"Carret, Chetumal Km 252, Ju\u00e1rez, 77780 Akumal, Q.R.","slug":"grand-oasis-tulum-riviera","zone":{"id":9,"name":"Akumal","distance":"100 KM","time":"1 H 30 Min"},"geo":{"zone":9,"lat":"20.3747906","lng":"-87.3285168"}},{"id":1122,"name":"Grand Palladium Colonial Resort & Spa akumal","address":"Carretera Federal Chetumal, Puerto Juarez Km.259-100, Predio 2, 77710 Playa del Carmen, Q.R.","slug":"grand-palladium-colonial-resort-and-spa-akumal","zone":{"id":9,"name":"Akumal","distance":"100 KM","time":"1 H 30 Min"},"geo":{"zone":9,"lat":"20.4419251","lng":"-87.2904075"}},{"id":1123,"name":"Grand Palladium Kantenah Resort & Spa","address":"Carretera Federal Chetumal, Puerto Juarez Km.259-100, Predio 1, 77710 Playa del Carmen, Q.R.","slug":"grand-palladium-kantenah-resort-and-spa","zone":{"id":9,"name":"Akumal","distance":"100 KM","time":"1 H 30 Min"},"geo":{"zone":9,"lat":"20.4446648","lng":"-87.2911233"}},{"id":1147,"name":"Grand Palladium Kantenah Resort & Spa","address":"Carretera Federal Chetumal, Puerto Juarez Km.259-100, Predio 1, 77710 Playa del Carmen, Q.R.","slug":"grand-palladium-kantenah-resort-and-spa","zone":{"id":9,"name":"Akumal","distance":"100 KM","time":"1 H 30 Min"},"geo":{"zone":9,"lat":"20.4446648","lng":"-87.2911233"}},{"id":1124,"name":"Grand Palladium White Sand Resort & Spa","address":"Carretera Federal Chetumal, Puerto Juarez Km.259-100, Predio 3, 77710 Playa del Carmen, Q.R.","slug":"grand-palladium-white-sand-resort-and-spa","zone":{"id":9,"name":"Akumal","distance":"100 KM","time":"1 H 30 Min"},"geo":{"zone":9,"lat":"20.4393091","lng":"-87.289833"}},{"id":1074,"name":"Grand Sirenis Riviera Maya Resort & Spa","address":"Carretera Federal Canc\u00fan - Tul\u00fam, Zona Costera, Km 256.3, 77780 Akumal, Q.R.","slug":"grand-sirenis-riviera-maya-resort-and-spa","zone":{"id":9,"name":"Akumal","distance":"100 KM","time":"1 H 30 Min"},"geo":{"zone":9,"lat":"20.428604","lng":"-87.2984678"}},{"id":1126,"name":"Hacienda de la Tortuga & La Mirage","address":"No. 12 Akumal Nte, 77776 Akumal, Q.R.","slug":"hacienda-de-la-tortuga-and-la-mirage","zone":{"id":9,"name":"Akumal","distance":"100 KM","time":"1 H 30 Min"},"geo":{"zone":9,"lat":"20.4070286","lng":"-87.3102549"}},{"id":1193,"name":"Hidden Beach Resort","address":"Carr. Canc\u00fan - Tulum Km. 55.3, 77710 Playa del Carmen, Q.R.","slug":"hidden-beach-resort","zone":{"id":9,"name":"Akumal","distance":"100 KM","time":"1 H 30 Min"},"geo":{"zone":9,"lat":"20.4537886","lng":"-87.2748981"}},{"id":1118,"name":"Hotel Akumal Caribe","address":"Carretera Puerto Juarez-Tulum Km 104, 77737 Akumal, Q.R.","slug":"hotel-akumal-caribe","zone":{"id":9,"name":"Akumal","distance":"100 KM","time":"1 H 30 Min"},"geo":{"zone":9,"lat":"20.3970426","lng":"-87.3171855"}},{"id":1169,"name":"Ka Kuxta","address":"Ka Kuxta, 77775 Q.R.","slug":"ka-kuxta","zone":{"id":9,"name":"Akumal","distance":"100 KM","time":"1 H 30 Min"},"geo":{"zone":9,"lat":"20.382766","lng":"-87.3269924"}},{"id":1129,"name":"Kiin Luxury Condos Vacation Rentals","address":"Carretera Chetumal Mz 22, Lt 1 Bah\u00eda Principe, 77760 Akumal, Q.R.","slug":"kiin-luxury-condos-vacation-rentals","zone":{"id":9,"name":"Akumal","distance":"100 KM","time":"1 H 30 Min"},"geo":{"zone":9,"lat":"20.3649726","lng":"-87.3460919"}},{"id":1130,"name":"La Bahia Akumal","address":"Carr. Canc\u00fan - Tulum, 77776 Akumal, Q.R.","slug":"la-bahia-akumal","zone":{"id":9,"name":"Akumal","distance":"100 KM","time":"1 H 30 Min"},"geo":{"zone":9,"lat":"20.4057941","lng":"-87.3115318"}},{"id":1131,"name":"La iguana condos y villas akumal","address":"Lotte 31, 77730, Q.R.","slug":"la-iguana-condos-y-villas-akumal","zone":{"id":9,"name":"Akumal","distance":"100 KM","time":"1 H 30 Min"},"geo":{"zone":9,"lat":"20.4073475","lng":"-87.3069707"}},{"id":1132,"name":"La Joya Condos","address":"Half Moon Bay, 77776 Akumal, Q.R.","slug":"la-joya-condos","zone":{"id":9,"name":"Akumal","distance":"100 KM","time":"1 H 30 Min"},"geo":{"zone":9,"lat":"20.4062913","lng":"-87.3109131"}},{"id":1133,"name":"La Lunita","address":"Secc H Depto 243 Lote D Hacienda de la tortuga, 77729 Akumal, Q.R.","slug":"la-lunita","zone":{"id":9,"name":"Akumal","distance":"100 KM","time":"1 H 30 Min"},"geo":{"zone":9,"lat":"20.4036665","lng":"-87.31952"}},{"id":1134,"name":"La Sirena Condominios","address":"Camino Yalku, Lotes 33 al 34 , Etapa H, 77780 Akumal, Q.R.","slug":"la-sirena-condominios","zone":{"id":9,"name":"Akumal","distance":"100 KM","time":"1 H 30 Min"},"geo":{"zone":9,"lat":"20.4075027","lng":"-87.3075586"}},{"id":1136,"name":"Las Casitas","address":"Yodzonot, 77776 Akumal, Q.R.","slug":"las-casitas","zone":{"id":9,"name":"Akumal","distance":"100 KM","time":"1 H 30 Min"},"geo":{"zone":9,"lat":"20.3971253","lng":"-87.3194389"}},{"id":1187,"name":"Las Villas Akumal","address":"Carretera Federal Cancun - Tulum Km 104 Mza 11 Lote 1 Fracc. Akumal, Caribe, 77737 Tulum, Q.R.","slug":"las-villas-akumal","zone":{"id":9,"name":"Akumal","distance":"100 KM","time":"1 H 30 Min"},"geo":{"zone":9,"lat":"20.387228","lng":"-87.3254762"}},{"id":1138,"name":"Lol Ka naab Condominiums","address":"Camino a Yal Ku No. 41 C Akumal Norte, 77776 Akumal, Q.R.","slug":"lol-ka-naab-condominiums","zone":{"id":9,"name":"Akumal","distance":"100 KM","time":"1 H 30 Min"},"geo":{"zone":9,"lat":"20.4046204","lng":"-87.3120313"}},{"id":1139,"name":"Luna Azul Condos","address":"Akumal Playa, Carr. Canc\u00fan - Tulum KM 104, 77776 Akumal, Q.R.","slug":"luna-azul-condos","zone":{"id":9,"name":"Akumal","distance":"100 KM","time":"1 H 30 Min"},"geo":{"zone":9,"lat":"20.4056562","lng":"-87.3116384"}},{"id":1140,"name":"Mi Casa Del Mar","address":"77776 Tulum, Q.R.","slug":"mi-casa-del-mar","zone":{"id":9,"name":"Akumal","distance":"100 KM","time":"1 H 30 Min"},"geo":{"zone":9,"lat":"20.3984827","lng":"-87.3122291"}},{"id":1108,"name":"Nah-Hah","address":"Lotte 31, 77730 Akumal, Q.R.","slug":"nah-hah","zone":{"id":9,"name":"Akumal","distance":"100 KM","time":"1 H 30 Min"},"geo":{"zone":9,"lat":"20.4072854","lng":"-87.3067076"}},{"id":1142,"name":"Nahil Condos","address":"Camino Yalku Caleta, 77737 Q.R.","slug":"nahil-condos","zone":{"id":9,"name":"Akumal","distance":"100 KM","time":"1 H 30 Min"},"geo":{"zone":9,"lat":"20.4075209","lng":"-87.3088398"}},{"id":1144,"name":"Nikte Condos","address":"77776 Tulum, Q.R.","slug":"nikte-condos","zone":{"id":9,"name":"Akumal","distance":"100 KM","time":"1 H 30 Min"},"geo":{"zone":9,"lat":"20.4049495","lng":"-87.3120362"}},{"id":1148,"name":"Playa Blanca","address":"77776 Akumal, Q.R.","slug":"playa-blanca","zone":{"id":9,"name":"Akumal","distance":"100 KM","time":"1 H 30 Min"},"geo":{"zone":9,"lat":"20.4059881","lng":"-87.3094809"}},{"id":1149,"name":"Quinta Del Mar","address":"77776 Akumal, Q.R.","slug":"quinta-del-mar","zone":{"id":9,"name":"Akumal","distance":"100 KM","time":"1 H 30 Min"},"geo":{"zone":9,"lat":"20.4102013","lng":"-87.3066544"}},{"id":1150,"name":"Secrets Akumal Riviera Maya","address":"Carretera Federal 307 Km 254 + 600, 77760 Akumal, Q.R.","slug":"secrets-akumal-riviera-maya","zone":{"id":9,"name":"Akumal","distance":"100 KM","time":"1 H 30 Min"},"geo":{"zone":9,"lat":"20.3961604","lng":"-87.3233092"}},{"id":1083,"name":"Secrets Akumal Riviera Maya","address":"Carretera Federal 307 Km 254 + 600, 77760 Akumal, Q.R.","slug":"secrets-akumal-riviera-maya","zone":{"id":9,"name":"Akumal","distance":"100 KM","time":"1 H 30 Min"},"geo":{"zone":9,"lat":"20.396155","lng":"-87.3712226"}},{"id":1081,"name":"Secrets Akumal Riviera Maya","address":"Carretera Federal 307 Km 254 + 600, 77760 Akumal, Q.R., Mexico","slug":"secrets-akumal-riviera-maya","zone":{"id":9,"name":"Akumal","distance":"100 KM","time":"1 H 30 Min"},"geo":{"zone":9,"lat":"20.3961554","lng":"-87.3207343"}},{"id":1151,"name":"Seven Seas Condominium","address":"77775 Tulum, Q.R.","slug":"seven-seas-condominium","zone":{"id":9,"name":"Akumal","distance":"100 KM","time":"1 H 30 Min"},"geo":{"zone":9,"lat":"20.3824268","lng":"-87.3270671"}},{"id":1152,"name":"Sunscape Akumal Beach Resort & Spa","address":"Puerto Juarez, Carretera Fed Chetumal km 251, 77776 Oasis Akumal, Q.R.","slug":"sunscape-akumal-beach-resort-and-spa","zone":{"id":9,"name":"Akumal","distance":"100 KM","time":"1 H 30 Min"},"geo":{"zone":9,"lat":"20.3745874","lng":"-87.3285044"}},{"id":1153,"name":"TAO Mexico","address":"Carretera Federal Chetumal \u2013 Benito Ju\u00e1rez km. 250, 77750 Akumal, Q.R.","slug":"tao-mexico","zone":{"id":9,"name":"Akumal","distance":"100 KM","time":"1 H 30 Min"},"geo":{"zone":9,"lat":"20.3832652","lng":"-87.339602"}},{"id":1154,"name":"The Reef Condominiums","address":"Lot 46, Norte, 77730 Akumal, Q.R.","slug":"the-reef-condominiums","zone":{"id":9,"name":"Akumal","distance":"100 KM","time":"1 H 30 Min"},"geo":{"zone":9,"lat":"20.4055405","lng":"-87.3113859"}},{"id":1155,"name":"The Sian Ka an at Grand Tulum","address":"Aventuras Akumal Carretera Tulum - Playa del Carmen Km 251, 77780 Akumal, Q.R.","slug":"the-sian-ka-an-at-grand-tulum","zone":{"id":9,"name":"Akumal","distance":"100 KM","time":"1 H 30 Min"},"geo":{"zone":9,"lat":"20.3746752","lng":"-87.3283237"}},{"id":1156,"name":"TRS Yucatan Hotel","address":"Carretera Chetumal-Puerto Ju\u00e1rez,Km. 259-100 Solidaridad - Akumal, 77710 Playa del Carmen, Q.R.","slug":"trs-yucatan-hotel","zone":{"id":9,"name":"Akumal","distance":"100 KM","time":"1 H 30 Min"},"geo":{"zone":9,"lat":"20.438515","lng":"-87.2916749"}},{"id":1052,"name":"Tulum Glamping Mexico","address":"Carretera Federal KM 308, lote 6, 77734 Xpu Ha, Q.R.","slug":"tulum-glamping-mexico","zone":{"id":9,"name":"Akumal","distance":"100 KM","time":"1 H 30 Min"},"geo":{"zone":9,"lat":"20.475194","lng":"-87.2649971"}},{"id":1157,"name":"UNICO 20 87 Hotel Riviera Maya","address":"M\u00e9xico 307 KM 260, SOLIDARIDAD, 77710 Q.R.","slug":"unico-20-87-hotel-riviera-maya","zone":{"id":9,"name":"Akumal","distance":"100 KM","time":"1 H 30 Min"},"geo":{"zone":9,"lat":"20.4473499","lng":"-87.2867199"}},{"id":1159,"name":"Villa Alma Rosa","address":"Bahia de Jade Manzana 10 Lote 03, 77737 Akumal, Q.R.","slug":"villa-alma-rosa","zone":{"id":9,"name":"Akumal","distance":"100 KM","time":"1 H 30 Min"},"geo":{"zone":9,"lat":"20.3890322","lng":"-87.3233142"}},{"id":1160,"name":"Villa Arrecife","address":"124 grand serenis resort, Calle 7 de Abril","slug":"villa-arrecife","zone":{"id":9,"name":"Akumal","distance":"100 KM","time":"1 H 30 Min"},"geo":{"zone":9,"lat":"20.4222825","lng":"-87.3007958"}},{"id":1161,"name":"Villa Balam Ek","address":"Lote 27 F, 77776 Akumal, Q.R.","slug":"villa-balam-ek","zone":{"id":9,"name":"Akumal","distance":"100 KM","time":"1 H 30 Min"},"geo":{"zone":9,"lat":"20.4013284","lng":"-87.311191"}},{"id":1162,"name":"Villa Bellamar","address":"Paseo Yal-Ku 36, Half Moon Bay, 77760 Akumal, Q.R.","slug":"villa-bellamar","zone":{"id":9,"name":"Akumal","distance":"100 KM","time":"1 H 30 Min"},"geo":{"zone":9,"lat":"20.4079978","lng":"-87.3075598"}},{"id":1173,"name":"Villa De Loas Primos","address":"Unnamed Road, Q.R.","slug":"villa-de-loas-primos","zone":{"id":9,"name":"Akumal","distance":"100 KM","time":"1 H 30 Min"},"geo":{"zone":9,"lat":"20.3806221","lng":"-87.3270409"}},{"id":1165,"name":"Villa Dos Jaguares","address":"77775 Gran Bah\u00eda Pr\u00edncipe, Q.R.","slug":"villa-dos-jaguares","zone":{"id":9,"name":"Akumal","distance":"100 KM","time":"1 H 30 Min"},"geo":{"zone":9,"lat":"20.382918","lng":"-87.3269919"}},{"id":1166,"name":"Villa Esprit del Mar","address":"Calle Punta Sur S\/N, Fracc. Punta Sur Akumal, 77780 Tulum, Q.R.","slug":"villa-esprit-del-mar","zone":{"id":9,"name":"Akumal","distance":"100 KM","time":"1 H 30 Min"},"geo":{"zone":9,"lat":"20.3774889","lng":"-87.3254001"}},{"id":1167,"name":"Villa Fantasea","address":"77775 Tulum, Q.R.","slug":"villa-fantasea","zone":{"id":9,"name":"Akumal","distance":"100 KM","time":"1 H 30 Min"},"geo":{"zone":9,"lat":"20.3784311","lng":"-87.3253269"}},{"id":1100,"name":"Villa Gauguin","address":"unknown road, 77776 Akumal, Q.R.","slug":"villa-gauguin","zone":{"id":9,"name":"Akumal","distance":"100 KM","time":"1 H 30 Min"},"geo":{"zone":9,"lat":"20.4096575","lng":"-87.306551"}},{"id":1170,"name":"Villa Kokobeach","address":"Mar Caribe, 500, 77776 Canc\u00fan, Q.R.","slug":"villa-kokobeach","zone":{"id":9,"name":"Akumal","distance":"100 KM","time":"1 H 30 Min"},"geo":{"zone":9,"lat":"20.4016506","lng":"-87.3115065"}},{"id":1135,"name":"Villa Laguna Encantada","address":"Unnamed Road, Q.R.","slug":"villa-laguna-encantada","zone":{"id":9,"name":"Akumal","distance":"100 KM","time":"1 H 30 Min"},"geo":{"zone":9,"lat":"20.4108019","lng":"-87.3100174"}},{"id":1174,"name":"Villa Margarita","address":"77776 Tulum, Q.R.","slug":"villa-margarita","zone":{"id":9,"name":"Akumal","distance":"100 KM","time":"1 H 30 Min"},"geo":{"zone":9,"lat":"20.387941","lng":"-87.3242629"}},{"id":1188,"name":"Villa Maya","address":"Av. del Golfo 109, 77775 Gran Bah\u00eda Pr\u00edncipe, Q.R.","slug":"villa-maya","zone":{"id":9,"name":"Akumal","distance":"100 KM","time":"1 H 30 Min"},"geo":{"zone":9,"lat":"20.3816506","lng":"-87.4107057"}},{"id":1176,"name":"Villa Mia","address":"Calle Punta Sur S\/N, Punta Sur, 77780 Akumal, QRO","slug":"villa-mia","zone":{"id":9,"name":"Akumal","distance":"100 KM","time":"1 H 30 Min"},"geo":{"zone":9,"lat":"20.3765496","lng":"-87.325812"}},{"id":1177,"name":"Villa Morena Ecoliving","address":"Carr. Canc\u00fan - Tulum Km 256, 77750 Akumal, Q.R.","slug":"villa-morena-ecoliving","zone":{"id":9,"name":"Akumal","distance":"100 KM","time":"1 H 30 Min"},"geo":{"zone":9,"lat":"20.4271118","lng":"-87.3177955"}},{"id":1179,"name":"Villa Palmera 43 Luxury Vacation Stay","address":"Villa Palmera Num 43 Villas Caribe Bahia Principe Resort, 77776 Akumal, Q.R.","slug":"villa-palmera-43-luxury-vacation-stay","zone":{"id":9,"name":"Akumal","distance":"100 KM","time":"1 H 30 Min"},"geo":{"zone":9,"lat":"20.3656236","lng":"-87.3455545"}},{"id":1180,"name":"Villa Palmilla","address":"77776 Q.R.","slug":"villa-palmilla","zone":{"id":9,"name":"Akumal","distance":"100 KM","time":"1 H 30 Min"},"geo":{"zone":9,"lat":"20.3882365","lng":"-87.3237294"}},{"id":1112,"name":"Villa Seagate Akumal","address":"Yal Ku 6, 77776 Akumal, Q.R.","slug":"villa-seagate-akumal","zone":{"id":9,"name":"Akumal","distance":"100 KM","time":"1 H 30 Min"},"geo":{"zone":9,"lat":"20.3977384","lng":"-87.3124838"}},{"id":1182,"name":"Villa Serenity","address":"Aventuras Akumal 27, 77776 Akumal, Q.R.","slug":"villa-serenity","zone":{"id":9,"name":"Akumal","distance":"100 KM","time":"1 H 30 Min"},"geo":{"zone":9,"lat":"20.3738198","lng":"-87.3297851"}},{"id":1184,"name":"Villa Sirena","address":"77776 Akumal, Q.R.","slug":"villa-sirena","zone":{"id":9,"name":"Akumal","distance":"100 KM","time":"1 H 30 Min"},"geo":{"zone":9,"lat":"20.4072794","lng":"-87.3068829"}},{"id":1185,"name":"Villa Tortugas","address":"Villa Tortugas Carretera Canc\u00fan - Tulum Km. 256, Calle 2 Rancho San Martin, 77776 Akumal, Q.R.","slug":"villa-tortugas","zone":{"id":9,"name":"Akumal","distance":"100 KM","time":"1 H 30 Min"},"geo":{"zone":9,"lat":"20.4244706","lng":"-87.3118246"}},{"id":1186,"name":"Villa Turquesa","address":"77775 Q.R.","slug":"villa-turquesa","zone":{"id":9,"name":"Akumal","distance":"100 KM","time":"1 H 30 Min"},"geo":{"zone":9,"lat":"20.3833312","lng":"-87.3269695"}},{"id":1158,"name":"Villa Valhalla","address":"77776 Akumal, Q.R.","slug":"villa-valhalla","zone":{"id":9,"name":"Akumal","distance":"100 KM","time":"1 H 30 Min"},"geo":{"zone":9,"lat":"20.4014227","lng":"-87.3114694"}},{"id":1190,"name":"Xio Akumal","address":"Avenida del Sol Esquina Via Palma Interior Residencial Golf Club Bah\u00eda pr\u00edncipe tulum Tao, 77780 Akumal, Q.R.","slug":"xio-akumal","zone":{"id":9,"name":"Akumal","distance":"100 KM","time":"1 H 30 Min"},"geo":{"zone":9,"lat":"20.3834976","lng":"-87.386046"}},{"id":1191,"name":"Yool Caanal Condos","address":"77776 Tulum, Q.R.","slug":"yool-caanal-condos","zone":{"id":9,"name":"Akumal","distance":"100 KM","time":"1 H 30 Min"},"geo":{"zone":9,"lat":"20.4073936","lng":"-87.3089665"}},{"id":1192,"name":"Zen del Mar","address":"77776 Tulum, Q.R.","slug":"zen-del-mar","zone":{"id":9,"name":"Akumal","distance":"100 KM","time":"1 H 30 Min"},"geo":{"zone":9,"lat":"20.3880583","lng":"-87.324126"}}]