[{"id":13,"name":"Boca Paila","address":"Boca Paila, Quintana Roo","slug":"boca-paila","zone":{"id":15,"name":"Boca Paila","distance":"139 KM","time":"2 H 31 Min"},"geo":{"zone":15,"lat":"20.0311617","lng":"-87.4780201"}},{"id":1634,"name":"Casa Chic","address":"Tulum Beach, 77760 Tulum, Q.R.","slug":"casa-chic","zone":{"id":15,"name":"Boca Paila","distance":"139 KM","time":"2 H 31 Min"},"geo":{"zone":15,"lat":"20.1289486","lng":"-87.4670479"}},{"id":1277,"name":"Casa de las Olas","address":"KM 10.6 Boca Paila Rd, Zona Hotelera Tulum, 77780 Tulum, Q.R.","slug":"casa-de-las-olas","zone":{"id":15,"name":"Boca Paila","distance":"139 KM","time":"2 H 31 Min"},"geo":{"zone":15,"lat":"20.1281857","lng":"-87.4671753"}},{"id":1288,"name":"Casa Ixchel Tulum","address":"Tulum Beach, 77766 Tulum, Q.R.","slug":"casa-ixchel-tulum","zone":{"id":15,"name":"Boca Paila","distance":"139 KM","time":"2 H 31 Min"},"geo":{"zone":15,"lat":"20.1292159","lng":"-87.4672872"}},{"id":1638,"name":"Casa Magna Tulum","address":"Tulum Beach, 77766 Tulum, Q.R.","slug":"casa-magna-tulum","zone":{"id":15,"name":"Boca Paila","distance":"139 KM","time":"2 H 31 Min"},"geo":{"zone":15,"lat":"20.1330016","lng":"-87.4669947"}},{"id":1340,"name":"Cormoran Boutique Hotel","address":"Carretera Tulum-Boca Paila Km 10, 77780, Q.R.","slug":"cormoran-boutique-hotel","zone":{"id":15,"name":"Boca Paila","distance":"139 KM","time":"2 H 31 Min"},"geo":{"zone":15,"lat":"20.1288629","lng":"-87.4681281"}},{"id":1330,"name":"El Cenote Encantado","address":"Carr. Tulum-Boca Paila Km 10, Tulum Beach, Zona Hotelera, 77760 Tulum, Q.R.","slug":"el-cenote-encantado","zone":{"id":15,"name":"Boca Paila","distance":"139 KM","time":"2 H 31 Min"},"geo":{"zone":15,"lat":"20.1310544","lng":"-87.4680368"}},{"id":1635,"name":"Hotel Casa Coyote","address":"Carr. Tulum-Boca Paila 2-2, Tulum Beach, 77780 Tulum, Q.R.","slug":"hotel-casa-coyote","zone":{"id":15,"name":"Boca Paila","distance":"139 KM","time":"2 H 31 Min"},"geo":{"zone":15,"lat":"20.1378683","lng":"-87.4659764"}},{"id":1408,"name":"Hotel Playa Xcanan","address":"Carretera Tulum, Bocapaila Km. 8, Zona Costena, 77888 Canc\u00fan, Q.R.","slug":"hotel-playa-xcanan","zone":{"id":15,"name":"Boca Paila","distance":"139 KM","time":"2 H 31 Min"},"geo":{"zone":15,"lat":"20.1487515","lng":"-87.4613694"}},{"id":1493,"name":"Nativus Glamping & Cenote Tulum","address":"Tulum Beach Road Carretera Boca Paila km 10.6, 77780 Q.R.","slug":"nativus-glamping-and-cenote-tulum","zone":{"id":15,"name":"Boca Paila","distance":"139 KM","time":"2 H 31 Min"},"geo":{"zone":15,"lat":"20.1305943","lng":"-87.4679886"}},{"id":1632,"name":"Yaxchen Tulum Caba\u00f1as & Cenote","address":"Quintana Roo 1560, Tulum Beach, 77760 Tulum, Q.R.","slug":"yaxchen-tulum-cabanas-and-cenote","zone":{"id":15,"name":"Boca Paila","distance":"139 KM","time":"2 H 31 Min"},"geo":{"zone":15,"lat":"20.1310448","lng":"-87.4680001"}}]