[{"id":1746,"name":"Casa Novelo","address":"C. 17 48, La Quinta, 97000 Pist\u00e9, Yuc.","slug":"casa-novelo","zone":{"id":18,"name":"Chich\u00e9n Itz\u00e1","distance":"203 Min","time":"2 H 15 Min"},"geo":{"zone":18,"lat":"20.6961361","lng":"-88.5903237"}},{"id":1743,"name":"Casa Victoria","address":"Chich\u00e9n Itz\u00e1, Calle 3, 97757 Pist\u00e9, Yuc.","slug":"casa-victoria","zone":{"id":18,"name":"Chich\u00e9n Itz\u00e1","distance":"203 Min","time":"2 H 15 Min"},"geo":{"zone":18,"lat":"20.7053881","lng":"-88.5874905"}},{"id":1748,"name":"Cenote Ik-Kil","address":"97756 Yuc.","slug":"cenote-ik-kil","zone":{"id":18,"name":"Chich\u00e9n Itz\u00e1","distance":"203 Min","time":"2 H 15 Min"},"geo":{"zone":18,"lat":"20.6610332","lng":"-88.5607377"}},{"id":16,"name":"Chich\u00e9n Itz\u00e1","address":"Km.120 Chich\u00e9n Itz\u00e1 Highway Merida Cancun, 97751 Chich\u00e9n Itz\u00e1, Yuc.","slug":"chichen-itza","zone":{"id":18,"name":"Chich\u00e9n Itz\u00e1","distance":"203 Min","time":"2 H 15 Min"},"geo":{"zone":18,"lat":"20.6787816","lng":"-88.5733424"}},{"id":1735,"name":"Hacienda Chichen Resort","address":"Carretera M\u00e9rida-Puerto Ju\u00e1rez Km. 120 Zona Hotelera de, 97751 Chich\u00e9n Itz\u00e1, Yuc.","slug":"hacienda-chichen-resort","zone":{"id":18,"name":"Chich\u00e9n Itz\u00e1","distance":"203 Min","time":"2 H 15 Min"},"geo":{"zone":18,"lat":"20.6787866","lng":"-88.5710518"}},{"id":1737,"name":"Hacienda Chichen Resort","address":"Carretera M\u00e9rida-Puerto Ju\u00e1rez Km. 120 Zona Hotelera de, 97751 Chich\u00e9n Itz\u00e1, Yuc.","slug":"hacienda-chichen-resort","zone":{"id":18,"name":"Chich\u00e9n Itz\u00e1","distance":"203 Min","time":"2 H 15 Min"},"geo":{"zone":18,"lat":"20.676761","lng":"-88.5716269"}},{"id":1745,"name":"Hacienda Piste de Chichen Itza Casa Amadeus","address":"C. 2 entre Calle 15-A, 97757 Pist\u00e9, Yuc.","slug":"hacienda-piste-de-chichen-itza-casa-amadeus","zone":{"id":18,"name":"Chich\u00e9n Itz\u00e1","distance":"203 Min","time":"2 H 15 Min"},"geo":{"zone":18,"lat":"20.6942509","lng":"-88.5886826"}},{"id":1747,"name":"Hostal y temazcal Guemez Chichen Itza","address":"lavander\u00eda de Do\u00f1a iracema, Calle 8 por 13 Alado de la, 97757 Pist\u00e9, Yuc.","slug":"hostal-y-temazcal-guemez-chichen-itza","zone":{"id":18,"name":"Chich\u00e9n Itz\u00e1","distance":"203 Min","time":"2 H 15 Min"},"geo":{"zone":18,"lat":"20.6989847","lng":"-88.5901204"}},{"id":1741,"name":"Hotel Chichen Itza","address":"C. 15 Num 45, 97751 Pist\u00e9, Yuc.","slug":"hotel-chichen-itza","zone":{"id":18,"name":"Chich\u00e9n Itz\u00e1","distance":"203 Min","time":"2 H 15 Min"},"geo":{"zone":18,"lat":"20.696012","lng":"-88.5900196"}},{"id":1738,"name":"Hotel Doralba Inn Chichen Itza","address":"Carretera Merida - Cancun Km.122 Chich\u00e9n Itz\u00e1, Yuc.","slug":"hotel-doralba-inn-chichen-itza","zone":{"id":18,"name":"Chich\u00e9n Itz\u00e1","distance":"203 Min","time":"2 H 15 Min"},"geo":{"zone":18,"lat":"20.6643763","lng":"-88.5520609"}},{"id":1739,"name":"Hotel La Casa de las Lunas Chichen Itza","address":"Calle 15 A S\/N, 97751 Pist\u00e9, Yuc.","slug":"hotel-la-casa-de-las-lunas-chichen-itza","zone":{"id":18,"name":"Chich\u00e9n Itz\u00e1","distance":"203 Min","time":"2 H 15 Min"},"geo":{"zone":18,"lat":"20.6963629","lng":"-88.5884114"}},{"id":1742,"name":"Hotel Okaan","address":"km 122 Carr Merida-Puerto Juarez, 97750 Chich\u00e9n Itz\u00e1, Yuc.","slug":"hotel-okaan","zone":{"id":18,"name":"Chich\u00e9n Itz\u00e1","distance":"203 Min","time":"2 H 15 Min"},"geo":{"zone":18,"lat":"20.6764786","lng":"-88.5444679"}},{"id":1740,"name":"Hotel Puerta Chichen","address":"No. 30x20, C. 15-A KM 117, 97751 Chich\u00e9n Itz\u00e1, Yuc.","slug":"hotel-puerta-chichen","zone":{"id":18,"name":"Chich\u00e9n Itz\u00e1","distance":"203 Min","time":"2 H 15 Min"},"geo":{"zone":18,"lat":"20.693549","lng":"-88.5855471"}},{"id":1736,"name":"Hotel Villas Arqueologicas Chichen Itza","address":"Chich\u00e9n Itz\u00e1, Valladolid, Carretera Merida Supermanzana Km 120, 97751 Pist\u00e9, Yuc.","slug":"hotel-villas-arqueologicas-chichen-itza","zone":{"id":18,"name":"Chich\u00e9n Itz\u00e1","distance":"203 Min","time":"2 H 15 Min"},"geo":{"zone":18,"lat":"20.6765484","lng":"-88.5696622"}},{"id":1749,"name":"Ik Kil Hotel","address":"Merida - Valladolid Km. 122, 97753 X-Calakoop, Yuc.","slug":"ik-kil-hotel","zone":{"id":18,"name":"Chich\u00e9n Itz\u00e1","distance":"203 Min","time":"2 H 15 Min"},"geo":{"zone":18,"lat":"20.6613781","lng":"-88.5528144"}},{"id":1753,"name":"OYO Posada Kari","address":"Calle 10 52, 97757 Pist\u00e9, Yuc.","slug":"oyo-posada-kari","zone":{"id":18,"name":"Chich\u00e9n Itz\u00e1","distance":"203 Min","time":"2 H 15 Min"},"geo":{"zone":18,"lat":"20.6978539","lng":"-88.589838"}},{"id":1752,"name":"Posada Chac Mool","address":"97757 CHICH\u00c9N ITZA, 97757 Pist\u00e9, Yuc.","slug":"posada-chac-mool","zone":{"id":18,"name":"Chich\u00e9n Itz\u00e1","distance":"203 Min","time":"2 H 15 Min"},"geo":{"zone":18,"lat":"20.695247","lng":"-88.587333"}},{"id":1750,"name":"Posada Olalde","address":"Calle C #49, Centro, 97751 Pist\u00e9, Yuc.","slug":"posada-olalde","zone":{"id":18,"name":"Chich\u00e9n Itz\u00e1","distance":"203 Min","time":"2 H 15 Min"},"geo":{"zone":18,"lat":"20.695391","lng":"-88.5896926"}},{"id":1751,"name":"Stardust Inn","address":"Chichen Itza Parking Lot, Calle 15 #34 x 2a y 2b, 97751 Pist\u00e9, Yuc.","slug":"stardust-inn","zone":{"id":18,"name":"Chich\u00e9n Itz\u00e1","distance":"203 Min","time":"2 H 15 Min"},"geo":{"zone":18,"lat":"20.6941243","lng":"-88.5861939"}},{"id":1744,"name":"Yaxkin Spa  Mayan Holistic Center","address":"Zona Hotelera de Chichen Itza Carretera LIbre #180 Merida-Cancun, Km. 120, 97752 Chich\u00e9n Itz\u00e1, Yuc.","slug":"yaxkin-spa--mayan-holistic-center","zone":{"id":18,"name":"Chich\u00e9n Itz\u00e1","distance":"203 Min","time":"2 H 15 Min"},"geo":{"zone":18,"lat":"20.675837","lng":"-88.5709189"}}]