[{"id":17,"name":"Chiquilla","address":"Calle Manantial S\/N Avenida Delfines, 77320 Chiquil\u00e1, Q.R.","slug":"chiquilla","zone":{"id":17,"name":"Chiquilla","distance":"145 KM","time":"1 H 55 Min"},"geo":{"zone":17,"lat":"21.4323185","lng":"-87.3375753"}},{"id":1756,"name":"Hotel Pelicano","address":"Avenida Delfines #6, 77320 Chiquil\u00e1, Q.R.","slug":"hotel-pelicano","zone":{"id":17,"name":"Chiquilla","distance":"145 KM","time":"1 H 55 Min"},"geo":{"zone":17,"lat":"21.4318935","lng":"-87.3385203"}},{"id":1757,"name":"Mayan Villas Hotel","address":"Calle Herrera y Castellanos, Lazaro Cardenas, 77320 Chiquil\u00e1, Q.R.","slug":"mayan-villas-hotel","zone":{"id":17,"name":"Chiquilla","distance":"145 KM","time":"1 H 55 Min"},"geo":{"zone":17,"lat":"21.426367","lng":"-87.3416349"}},{"id":1755,"name":"Temazcalli Villas","address":"77330 Solferino, Q.R.","slug":"temazcalli-villas","zone":{"id":17,"name":"Chiquilla","distance":"145 KM","time":"1 H 55 Min"},"geo":{"zone":17,"lat":"21.364962","lng":"-87.4051022"}},{"id":1754,"name":"Villas Ixchel","address":"Calle coronado entre libertad y manantial, 77320 Chiquil\u00e1, Q.R.","slug":"villas-ixchel","zone":{"id":17,"name":"Chiquilla","distance":"145 KM","time":"1 H 55 Min"},"geo":{"zone":17,"lat":"21.4280178","lng":"-87.3447392"}},{"id":1758,"name":"Villas Yalahau","address":"Villas Yalahau, Carretera El Ideal, 77320 Chiquil\u00e1, Q.R.","slug":"villas-yalahau","zone":{"id":17,"name":"Chiquilla","distance":"145 KM","time":"1 H 55 Min"},"geo":{"zone":17,"lat":"21.4280128","lng":"-87.418382"}}]